City,Latitude,Longitude,Population
Copenhagen,55.6786,12.5635,1085000
Aarhus,56.1572,10.2107,237551
Odense,55.4004,10.3833,158222
Aalborg,57.0337,9.9166,122219
Esbjerg,55.4670,8.4500,72205
Vejle,55.7090,9.5350,51177
Viborg,56.4333,9.4000,34831
Hillerod,55.9333,12.3167,28313
Soro,55.4330,11.5667,7167
Roskilde,55.6500,12.0833,44285
Svendborg,55.0704,10.6167,29180
Frederikshavn,57.4337,10.5333,24103
