City,Latitude,Longitude,Population
Asmara,15.3333,38.9167,963000
Keren,15.6804,38.4500,150000
Assab,13.0078,42.7411,74405
Massawa,15.6000,39.4333,39758
Mendefera,14.8833,38.8167,28492
Barentu,15.1058,37.5907,
Beylul,13.2639,42.3347,14055
Adi Keyh,14.8333,39.3667,13061
Ghinda'e,15.4500,39.0833,11560
Edd,13.9333,41.7000,11259
Dek'emhare,15.0700,39.0475,10959
Ak'ordat,15.5500,37.8833,8857
Nefasit,15.3333,39.0619,8600
Sen`afe,14.7000,39.4167,6831
Teseney,15.1100,36.6575,3753
