City,Latitude,Longitude,Population
Maseru,-29.3100,27.4800,330790
Teyateyaneng,-29.1500,27.7333,75115
Mafeteng,-29.8167,27.2500,57059
Leribe,-28.8734,28.0416,47675
Mohale's Hoek,-30.1590,27.4800,24992
Quthing,-30.4001,27.7002,15000
Butha-Buthe,-28.7833,28.2333,10000
Mokhotlong,-29.2885,29.0656,8809
Thaba-Tseka,-29.5333,28.6000,5423
Qacha's Nek,-30.1153,28.6894,
Maputsoe,-28.8833,27.9000,32117
