City,Latitude,Longitude,Population
Luxembourg,49.6106,6.1328,122273
Esch-sur-Alzette,49.4969,5.9806,36218
Diekirch,49.8678,6.1558,6242
Echternach,49.8117,6.4217,5617
Remich,49.5444,6.3667,3732
Grevenmacher,49.6747,6.4419,3958
Capellen,49.6444,5.9897,
Wiltz,49.9689,5.9319,
Vianden,49.9350,6.2089,
Mersch,49.7489,6.1061,
Clervaux,50.0547,6.0314,
Redange-sur-Attert,49.7656,5.8908,
Rumelange,49.4597,6.0306,5604
Steinfort,49.6600,5.9156,5459
Mondorf-les-Bains,49.5069,6.2806,5359
