City,Latitude,Longitude,Population
Warsaw,52.2167,21.0333,1790658
Krakow,50.0614,19.9372,766739
Lodz,51.7769,19.4547,690422
Wroclaw,51.1077,17.0353,638586
Poznan,52.4000,16.9167,538633
Gdansk,54.3667,18.6333,464254
Szczecin,53.4247,14.5553,403833
Bydgoszcz,53.1167,18.0000,358614
Lublin,51.2333,22.5667,339850
Bialystok,53.1167,23.1667,297288
Katowice,50.2500,19.0000,276499
Gdynia,54.5189,18.5319,247672
Czestochowa,50.8000,19.1167,228179
Radom,51.4036,21.1567,219703
Torun,53.0167,18.6167,202521
Sosnowiec,50.3000,19.1667,199974
Kielce,50.8725,20.6319,191605
Rzeszow,50.0500,22.0000,182548
Gliwice,50.2976,18.6766,179806
Zabrze,50.3000,18.7833,174349
Olsztyn,53.7800,20.4942,173599
Bielsko-Biala,49.8225,19.0444,172781
Bytom,50.3470,18.9230,171515
Rybnik,50.0833,18.5000,141000
Ruda Slaska,50.2628,18.8536,139412
Zielona Gora,51.9397,15.5050,139330
Tychy,50.1667,19.0000,129322
Opole,50.6722,17.9253,127792
Gorzow Wielkopolski,52.7333,15.2500,124295
Dabrowa Gornicza,50.3239,19.1947,122712
Elblag,54.1667,19.4000,122568
Plock,52.5500,19.7000,120000
Walbrzych,50.7667,16.2833,116069
Chorzow,50.3000,18.9500,111536
Tarnow,50.0125,20.9883,110956
Wloclawek,52.6500,19.0500,110802
Koszalin,54.1903,16.1817,108576
Kalisz,51.7570,18.0830,103738
Legnica,51.2101,16.1619,101133
Inowroclaw,52.7958,18.2611,76086
Pruszkow,52.1667,20.8000,61237
Elk,53.8167,22.3500,60621
Swidnica,50.8438,16.4886,57761
Swidnik,51.2333,22.7000,42797
Malbork,54.0285,19.0444,38895
Sopot,54.4419,18.5478,37457
Brzeg,50.8667,17.4833,36541
Czeladz,50.3333,19.0833,34402
Ketrzyn,54.0833,21.3833,27827
Piastow,52.1833,20.8500,23332
Koscian,52.0833,16.6500,24086
Szczytno,53.5628,20.9853,23500
Chojnow,51.2667,15.9333,13904
Grudziadz,53.4925,18.7761,95964
Jaworzno,50.2000,19.2750,94305
Jelenia Gora,50.9000,15.7333,84306
Siedlce,52.1833,22.2833,76585
Myslowice,50.2333,19.1333,75183
Piotrkow Trybunalski,51.4000,19.6833,74905
Ostrowiec Swietokrzyski,50.9333,21.4000,72001
Gniezno,52.5333,17.6000,70083
Suwalki,54.0833,22.9333,69626
Przemysl,49.7850,22.7673,67847
Pabianice,51.6642,19.3500,64988
Chelm,51.1333,23.4833,63734
Lomza,53.1833,22.0833,62700
Mielec,50.2833,21.4333,60628
Tarnowskie Gory,50.4500,18.8667,60879
Belchatow,51.3667,19.3667,59025
Biala Podlaska,52.0333,23.1167,57498
Ostroleka,53.0833,21.5667,52900
Pulawy,51.4166,21.9694,49839
Starogard Gdanski,53.9667,18.5333,48690
Rumia,54.5667,18.4000,47148
Kolobrzeg,54.1667,15.5667,46716
Tarnobrzeg,50.5833,21.6833,47816
Skierniewice,51.9528,20.1417,47837
Kutno,52.2333,19.3667,47557
Nysa,50.4738,17.3344,46841
Ciechanow,52.8817,20.6106,46112
Otwock,52.1167,21.2667,42765
Sieradz,51.6000,18.7500,42120
Mikolow,50.1710,18.9041,42053
Kwidzyn,53.7358,18.9308,40008
Swinoujscie,53.9167,14.2500,41479
Nowa Sol,51.8000,15.7167,39721
Boleslawiec,51.2667,15.5667,39412
Oswiecim,50.0333,19.2333,39057
Chrzanow,50.1333,19.4000,38989
Jaroslaw,50.0162,22.6778,38796
Zary,51.6333,15.1333,37502
Lebork,54.5500,17.7500,35374
Cieszyn,49.7500,18.6333,34513
Nowy Targ,49.4833,20.0333,33545
Police,53.5500,14.5708,33152
Zgorzelec,51.1528,15.0000,31359
Lukow,51.9167,22.3833,30381
Bochnia,49.9833,20.4333,30075
Bielawa,50.6908,16.6230,30207
Mlawa,53.1167,20.3667,29836
Krotoszyn,51.6970,17.4357,29379
Lubon,52.3333,16.8833,27000
Gorlice,49.6556,21.1604,27597
Bilgoraj,50.5500,22.7333,27290
Klodzko,50.4378,16.6528,27193
Zakopane,49.2994,19.9519,27490
Bielsk Podlaski,52.7667,23.2000,26493
Grodzisk Mazowiecki,52.1039,20.6337,26881
Walcz,53.2667,16.4667,26354
Brzozow,49.6953,22.0194,26615
Kluczbork,50.9833,18.2167,26164
Swiecie,53.4167,18.4333,26026
Wagrowiec,52.8000,17.2000,24529
Bialogard,54.0070,15.9875,24570
Jawor,51.0500,16.1833,24070
Sandomierz,50.6833,21.7500,24187
Bierun Stary,50.0897,19.0928,23640
Konstancin-Jeziorna,52.0938,21.1176,23694
Ostrow Mazowiecka,52.8000,21.9000,22800
Lubartow,51.4667,22.6000,22138
Hajnowka,52.7333,23.5667,21442
Leczna,51.3000,22.8833,21802
Swiedbodzin,52.2500,15.5333,21988
Laziska Gorne,50.1500,18.8333,21958
Opoczno,51.3833,20.2833,21780
Wieliczka,49.9894,20.0661,21878
Chelmno,53.3492,18.4261,20428
Gryfino,53.2524,14.4883,21555
Prudnik,50.3197,17.5792,21237
Pleszew,51.8974,17.7856,20365
Kety,49.8821,19.2233,19428
Deblin,51.5667,21.8614,19513
Gostynin,52.4167,19.4667,19414
Naklo nad Notecia,53.1421,17.6018,19507
Lancut,50.0687,22.2291,17749
Pultusk,52.7025,21.0828,19229
Rawa Mazowiecka,51.7667,20.2500,17765
Miedzyrzecz,52.4446,15.5780,18459
Kostrzyn nad Odra,52.5883,14.6667,18125
Braniewo,54.3833,19.8333,17123
Kobylka,52.3395,21.1959,17586
Rypin,53.0667,19.4500,16558
Oborniki,52.6500,16.8167,17895
Miedzyrzec Podlaski,51.9833,22.8000,17117
Ustka,54.5805,16.8619,16308
Zlotoryja,51.1264,15.9198,16479
Milanowek,52.1243,20.6654,16419
Leczyca,52.0583,19.2000,15593
Brzesko,49.9667,20.6167,16912
Gubin,51.9500,14.7333,17150
Bytow,54.1667,17.5000,16888
Krapkowice,50.4751,17.9654,16721
Strzegom,51.0000,16.3333,16650
Chelmza,53.2000,18.6000,14808
Olecko,54.0333,22.5000,16508
Przeworsk,50.0591,22.4941,15713
Ustron,49.7167,18.8167,16065
Czluchow,53.6500,17.3667,14625
Siemiatycze,52.4272,22.8625,15169
Jelcz-Laskowice,51.0333,17.3333,15340
Glucholazy,50.3131,17.3742,15293
Wschowa,51.8000,16.3000,14607
Darlowo,54.4167,16.4167,13943
Lubsko,51.7877,14.9724,14182
Nidzica,53.3583,20.4250,13872
Glubczyce,50.2009,17.8286,13572
Wolsztyn,52.1167,16.1167,13477
Trzebnica,51.3050,17.0614,13161
Brzeg Dolny,51.2730,16.7081,12816
Lubaczow,50.1556,23.1230,12415
Brzeszcze,50.0000,19.1500,11921
Niepolomice,50.0339,20.2172,12000
Wegorzewo,54.2167,21.7500,12186
Brwinow,52.1417,20.7167,11743
Nowe Miasto Lubawskie,53.4167,19.5833,10997
Krynica,49.4222,20.9594,11361
Ciechocinek,52.8833,18.7833,10874
Miastko,54.0000,16.9833,11123
Wisla,49.6667,18.8667,11048
Warka,51.7833,21.2000,11035
Krzeszowice,50.1333,19.6333,10281
Koronowo,53.3137,17.9370,10818
Biskupiec,53.8647,20.9569,10539
Ozimek,50.6731,18.2131,10000
Stary Sacz,49.5625,20.6364,9056
Lwowek Slaski,51.1167,15.5833,9500
Ziebice,50.6000,17.0444,9154
Kamien Pomorski,53.9697,14.7858,9144
Zychlin,52.2453,19.6236,9021
Polaniec,50.4333,21.2833,8419
Prabuty,53.7558,19.1975,8215
Trzemeszno,52.5614,17.8231,7792
Reszel,54.0504,21.1458,7721
Zbaszyn,52.2531,15.9178,7264
Gluszyca,50.6874,16.3717,6855
Belzyce,51.1833,22.2667,7090
Sobotka,50.8986,16.7444,6965
Gryfow Slaski,51.0308,15.4202,6943
Pilawa Gorna,50.6833,16.7500,6673
Kornik,52.2367,17.0986,6807
Gniew,53.8333,18.8333,6844
Gogolin,50.4881,18.0239,6116
Mszczonow,51.9742,20.5267,6323
Grybow,49.6244,20.9483,6038
Jedlicze,49.7164,21.6456,5766
Dabrowa Bialostocka,53.6500,23.3500,6226
Kazimierza Wielka,50.2656,20.4936,5848
Smigiel,52.0134,16.5270,5420
Bierutow,51.1333,17.5333,5065
