City,Latitude,Longitude,Population
Doha,25.3000,51.5333,1312947
Al Wakrah,25.1800,51.6100,
Ar Rayyan,25.2919,51.4244,
Al Khawr,25.6839,51.5058,
Ash Shihaniyah,25.3709,51.2226,
Umm Salal `Ali,25.4697,51.3975,
Az Za`ayin,25.5774,51.4831,
Madinat ash Shamal,26.1293,51.2009,
