City,Latitude,Longitude,Population
San Marino,43.9320,12.4484,4040
Serravalle,43.9683,12.4811,
Borgo Maggiore,43.9408,12.4475,
Domagnano,43.9492,12.4686,
Acquaviva,43.9453,12.4183,
Fiorentino,43.9092,12.4581,
Montegiardino,43.9092,12.4833,
Chiesanuova,43.9061,12.4214,
Faetano,43.9261,12.4981,
