City,Latitude,Longitude,Population
Sao Tome,0.3333,6.7333,56166
Trindade,0.3000,6.6667,6636
Guadalupe,0.3792,6.6375,
Santana,0.2600,6.7414,
Neves,0.3586,6.5525,
Santo Antonio,1.6386,7.4206,
Sao Joao dos Angolares,0.1342,6.6494,
