City,Latitude,Longitude,Population
Lome,6.1319,1.2228,837437
Sokode,8.9833,1.1333,113000
Kpalime,6.9100,0.6281,100479
Atakpame,7.5300,1.1200,80683
Dapaong,10.8623,0.2076,
Kara,9.5511,1.1861,
Sansanne-Mango,10.3556,0.4756,42626
Bassar,9.2500,0.7833,23181
Sotouboua,8.5667,0.9833,21054
