City,Latitude,Longitude,Population
London,51.5072,-0.1275,10979000
Birmingham,52.4800,-1.9025,2897303
Manchester,53.4794,-2.2453,2705000
Leeds,53.7997,-1.5492,1901934
Newcastle,55.0077,-1.6578,1650000
Birstall,52.6736,-1.1200,1424216
Glasgow,55.8609,-4.2514,985290
Liverpool,53.4000,-2.9833,864122
Southampton,50.9000,-1.4000,855569
Portsmouth,50.8058,-1.0872,855679
Nottingham,52.9500,-1.1500,768638
Bristol,51.4500,-2.5833,724000
Sheffield,53.3833,-1.4667,685368
Kingston upon Hull,53.7444,-0.3325,573300
Leicester,52.6333,-1.1333,508916
Edinburgh,55.9530,-3.1890,488050
Caerdydd,51.4833,-3.1833,479000
Stoke-on-Trent,53.0000,-2.1833,372775
Coventry,52.4081,-1.5106,362690
Reading,51.4542,-0.9731,337108
Belfast,54.5964,-5.9300,333871
Derby,52.9167,-1.4667,270500
Plymouth,50.3714,-4.1422,267918
Wolverhampton,52.5833,-2.1333,254406
Abertawe,51.6167,-3.9500,245500
Milton Keynes,52.0400,-0.7600,229941
Islington,51.5440,-0.1027,206125
Aberdeen,57.1500,-2.1100,214610
Luton,51.8783,-0.4147,213052
Norwich,52.6300,1.2970,213166
Croydon,51.3727,-0.1099,192064
Swindon,51.5600,-1.7800,192599
Basildon,51.5761,0.4886,185900
Bournemouth,50.7200,-1.8800,183491
Worthing,50.8147,-0.3714,183000
Ipswich,52.0594,1.1556,180000
Sunderland,54.9061,-1.3811,174286
Ilford,51.5588,0.0855,168168
Middlesbrough,54.5767,-1.2355,174700
Warrington,53.3917,-2.5972,165456
Huddersfield,53.6450,-1.7798,162949
Slough,51.5100,-0.5900,164455
Oxford,51.7519,-1.2578,154600
York,53.9583,-1.0803,153717
Harrow,51.5836,-0.3464,149246
Poole,50.7167,-1.9833,151500
Saint Albans,51.7550,-0.3360,147373
Dundee,56.4620,-2.9707,148270
Blackpool,53.8142,-3.0503,139720
Tottenham,51.5880,-0.0720,129237
Telford,52.6766,-2.4469,142723
Sale,53.4240,-2.3220,134022
Brighton,50.8429,-0.1313,134293
Enfield,51.6522,-0.0808,132640
High Wycombe,51.6287,-0.7482,125257
Bolton,53.5780,-2.4290,128139
Romford,51.5768,0.1801,122854
Newport,51.5833,-3.0000,128060
Exeter,50.7167,-3.5333,124180
Solihull,52.4130,-1.7780,123187
Gateshead,54.9500,-1.6000,120046
Preston,53.7590,-2.6990,122719
Blackburn,53.7480,-2.4820,117963
Walthamstow,51.5900,-0.0000,109424
Cheltenham,51.9000,-2.0667,116447
Basingstoke,51.2667,-1.0876,113776
Maidstone,51.2720,0.5290,113137
Chelmsford,51.7361,0.4798,111511
Doncaster,53.5150,-1.1330,109805
Colchester,51.8917,0.9030,111921
Wythenshawe,53.3920,-2.2640,110000
Rotherham,53.4300,-1.3570,109691
Hounslow,51.4668,-0.3750,103337
Rochdale,53.6136,-2.1610,107926
Bedford,52.1350,-0.4700,106940
Stockport,53.4083,-2.1494,105878
Darlington,54.5270,-1.5526,105564
Crawley,51.1092,-0.1872,106597
Salford,53.4830,-2.2931,103886
Wembley,51.5528,-0.2979,102856
Dagenham,51.5397,0.1422,106247
Gillingham,51.3850,0.5500,104157
Mansfield,53.1500,-1.2000,106556
Eastbourne,50.7700,0.2800,103745
Worcester,52.1920,-2.2200,101328
Fyfield,51.7390,0.2722,104234
Wigan,53.5448,-2.6318,103608
Hove,50.8352,-0.1758,91900
Saint Helens,53.4541,-2.7461,102629
Hemel Hempstead,51.7526,-0.4692,97500
Wakefield,53.6800,-1.4900,99251
Watford,51.6550,-0.3957,96800
Lincoln,53.2344,-0.5386,97541
Kettering,52.3931,-0.7229,93475
Fulham,51.4828,-0.1950,87161
East Ham,51.5323,0.0554,76186
Barnsley,53.5537,-1.4791,91297
Hartlepool,54.6900,-1.2100,92000
Ealing,51.5175,-0.2988,85014
Birkenhead,53.3930,-3.0140,88818
Nuneaton,52.5230,-1.4680,86552
Brixton,51.4630,-0.1060,78536
Bromley,51.4070,0.0210,87889
Bath,51.3800,-2.3600,88859
Edmonton,51.6154,-0.0708,82472
Hayes,51.5127,-0.4211,83564
Woolwich,51.4880,0.0630,84959
Bracknell,51.4160,-0.7490,84469
Edgware,51.6185,-0.2729,76506
Derry,55.0004,-7.3333,83652
Scunthorpe,53.5809,-0.6502,82334
West Bromwich,52.5190,-1.9950,77997
Chatham,51.3700,0.5200,76792
Dudley,52.5080,-2.0890,79379
South Shields,54.9950,-1.4300,75337
Paisley,55.8466,-4.4236,77310
Weston-super-Mare,51.3460,-2.9770,76143
Bury,53.5930,-2.2980,78723
Gravesend,51.4415,0.3685,74000
Lowestoft,52.4800,1.7500,71010
Carlisle,54.8910,-2.9440,75306
Harrogate,53.9919,-1.5378,75070
Newcastle under Lyme,53.0109,-2.2278,75082
Kensington,51.5000,-0.1900,64681
East Kilbride,55.7645,-4.1771,75390
Thornton Heath,51.4002,-0.1086,65812
Ashford,51.1465,0.8676,74204
Southall,51.5121,-0.3779,69857
Rugby,52.3700,-1.2600,70628
Burton upon Trent,52.8019,-1.6367,72299
Uxbridge,51.5404,-0.4778,70560
Crewe,53.0990,-2.4400,71722
Gosport,50.7948,-1.1243,71529
Wandsworth,51.4550,-0.1920,61594
Finchley,51.5990,-0.1870,65812
Inverness,57.4781,-4.2233,70000
Feltham,51.4496,-0.4089,63368
Chingford,51.6310,0.0160,66211
Washington,54.9000,-1.5200,67085
Maidenhead,51.5217,-0.7177,69309
Wimbledon,51.4220,-0.2080,68187
Loughborough,52.7705,-1.2046,66611
Tynemouth,55.0170,-1.4230,67519
Walsall,52.5800,-1.9800,67594
Rochester,51.3750,0.5000,62982
Acton,51.5135,-0.2707,62480
Mitcham,51.4009,-0.1517,63393
Wrecsam,53.0460,-2.9930,65692
Waterlooville,50.8800,-1.0300,64350
Scarborough,54.2773,-0.4017,61749
Farnborough,51.2900,-0.7500,65034
Twickenham,51.4490,-0.3370,62148
Stourbridge,52.4575,-2.1479,63298
Streatham,51.4279,-0.1235,58055
Barking,51.5400,0.0800,59068
Dewsbury,53.6910,-1.6330,62945
Widnes,53.3630,-2.7280,61464
Taunton,51.0190,-3.1000,60479
Bangor,54.6600,-5.6700,61011
Aylesbury,51.8168,-0.8124,58740
Halesowen,52.4502,-2.0509,58135
Ruislip,51.5760,-0.4330,58217
Royal Tunbridge Wells,51.1320,0.2630,59947
Wallasey,53.4158,-3.0233,60284
Barrow in Furness,54.1108,-3.2261,56745
Hereford,52.0565,-2.7160,55955
Ellesmere Port,53.2790,-2.8970,55715
Braintree,51.8780,0.5500,53477
Hendon,51.5837,-0.2252,52972
Kidderminster,52.3885,-2.2490,55530
Crosby,53.4872,-3.0343,50044
Hamilton,55.7770,-4.0390,54230
Altrincham,53.3838,-2.3547,52419
Barri,51.4050,-3.2700,51502
Royal Leamington Spa,52.2920,-1.5370,49662
Dunfermline,56.0719,-3.4393,54050
Llanelli,51.6840,-4.1630,49591
Weymouth,50.6130,-2.4570,53068
Greenford,51.5299,-0.3488,46787
Rowley Regis,52.4800,-2.0600,50257
Bootle,53.4457,-2.9891,51394
Paignton,50.4353,-3.5625,49021
Lancaster,54.0470,-2.8010,52234
Morden,51.4015,-0.1949,48233
Catford,51.4452,-0.0207,44905
Folkestone,51.0810,1.1660,46698
Stratford,51.5423,-0.0026,51387
Sutton in Ashfield,53.1250,-1.2610,49023
Macclesfield,53.2581,-2.1274,51482
Wellingborough,52.2939,-0.6964,49128
Barnet,51.6444,-0.1997,47359
Kirkcaldy,56.1107,-3.1674,50180
Cumbernauld,55.9450,-3.9940,50430
Batley,53.7160,-1.6270,49448
Pen-y-Bont ar Ogwr,51.5072,-3.5784,49404
Eltham,51.4510,0.0520,48964
Surbiton,51.3940,-0.3070,45132
Ashton,53.4897,-2.0952,45198
Stretford,53.4466,-2.3086,46910
Welwyn Garden City,51.8062,-0.1932,46619
West Bridgford,52.9320,-1.1270,47109
Yeovil,50.9452,-2.6370,45000
Beckenham,51.4080,-0.0220,46844
Cheshunt,51.7020,-0.0350,44000
Perth,56.3970,-3.4370,46960
Ayr,55.4580,-4.6290,46490
Banbury,52.0610,-1.3360,46853
Wokingham,51.4100,-0.8400,46745
Kingston upon Thames,51.4103,-0.2995,43013
Havant,50.8500,-0.9800,45826
Hinckley,52.5413,-1.3725,45249
Erith,51.4800,0.1778,45345
Morley,53.7492,-1.6023,44440
Welling,51.4594,0.1097,41000
Castleford,53.7160,-1.3560,40210
Fareham,50.8500,-1.1800,42210
Merthyr Tudful,51.7430,-3.3780,43820
Urmston,53.4487,-2.3747,41825
Kingswood,51.4600,-2.5050,40734
Newbury,51.4010,-1.3230,41075
Sutton,51.3656,-0.1963,41483
Bridgwater,51.1280,-2.9930,41276
Bishops Stortford,51.8720,0.1725,40089
Kirkby,53.4826,-2.8920,40472
Salisbury,51.0740,-1.7936,40302
Caerphilly,51.5780,-3.2180,41402
Grays,51.4750,0.3300,36601
Abingdon,51.6670,-1.2830,39809
Ramsgate,51.3360,1.4160,40408
Ilkeston,52.9710,-1.3090,38640
Aldershot,51.2480,-0.7580,36322
Cleethorpes,53.5533,-0.0215,38996
Leighton Buzzard,51.9165,-0.6617,37000
Blyth,55.1260,-1.5140,37339
Aldridge,52.6060,-1.9179,39348
Long Eaton,52.8980,-1.2710,37760
Arnold,53.0050,-1.1270,37768
Small Heath,52.4629,-1.8542,36898
Herne Bay,51.3700,1.1300,38563
Aberdare,51.7130,-3.4450,39550
Glenrothes,56.1980,-3.1780,38240
Port Talbot,51.5906,-3.7986,37276
Hyde,53.4474,-2.0820,34003
Fleet,51.2834,-0.8456,37000
Whitley Bay,55.0456,-1.4443,36623
Beeston,52.9270,-1.2150,37000
Camberley,51.3350,-0.7420,38038
Dunstable,51.8860,-0.5210,35000
Bletchley,51.9940,-0.7320,37114
Denton,53.4554,-2.1122,36591
North Shields,55.0097,-1.4448,34423
Pont-y-pwl,51.7030,-3.0410,35447
Kenton,51.5878,-0.3086,35600
Bridlington,54.0819,-0.1923,35369
Walkden,53.5239,-2.3991,35616
Northolt,51.5470,-0.3620,30304
Highbury,51.5520,-0.0970,26664
Ewell,51.3500,-0.2490,34872
Wisbech,52.6640,0.1600,33933
Chorley,53.6530,-2.6320,34667
Hanwell,51.5189,-0.3376,28768
Falkirk,56.0011,-3.7835,35168
Redcar,54.6180,-1.0690,35692
Spalding,52.7858,-0.1529,34613
Hitchin,51.9470,-0.2830,33352
Strood,51.3930,0.4780,33182
Letchworth,51.9780,-0.2300,33249
Wigston Magna,52.5812,-1.0930,32321
Pinner,51.5932,-0.3894,31130
Trowbridge,51.3200,-2.2100,33108
Rayleigh,51.5864,0.6049,32150
Earley,51.4330,-0.9330,32036
Bicester,51.9000,-1.1500,32642
Rutherglen,55.8286,-4.2139,31120
Ryde,50.7271,-1.1618,32072
Lichfield,52.6835,-1.8265,33816
Ecclesfield,53.4429,-1.4698,32073
Pontypridd,51.6020,-3.3420,32694
Prestwich,53.5333,-2.2833,31693
Brighouse,53.7070,-1.7940,32360
Farnworth,53.5452,-2.3999,30271
Stroud,51.7440,-2.2150,32670
Darwen,53.6980,-2.4610,31570
Dover,51.1295,1.3089,31022
Bexleyheath,51.4590,0.1380,31929
Nelson,53.8346,-2.2180,29135
Huyton,53.4100,-2.8430,33193
Saint Neots,52.2280,-0.2700,30811
Swadlincote,52.7740,-1.5570,32219
Wishaw,55.7739,-3.9189,30250
Deal,51.2226,1.4006,30085
Borehamwood,51.6578,-0.2723,31955
Pontefract,53.6910,-1.3120,30881
Willenhall,52.5798,-2.0605,28480
Longton,52.9877,-2.1327,27214
Plympton,50.3860,-4.0510,29899
Bromsgrove,52.3353,-2.0579,29237
Bulwell,53.0010,-1.1970,29771
Reddish,53.4383,-2.1613,28052
Cramlington,55.0820,-1.5850,29405
Kendal,54.3260,-2.7450,28586
Perry Barr,52.5249,-1.9042,23652
Cambuslang,55.8190,-4.1671,29690
Darlaston,52.5708,-2.0457,27821
West Ham,51.5347,0.0077,15551
Clifton,52.9040,-1.1770,26835
Wood Green,51.5981,-0.1149,28453
Frome,51.2279,-2.3215,26203
Newton Abbot,50.5290,-3.6100,25556
Hertford,51.7950,-0.0780,26783
Ashington,55.1810,-1.5680,27764
Rhyl,53.3210,-3.4800,25149
Longbridge,52.3950,-1.9790,25410
Rainham,51.3600,0.6100,25000
Yate,51.5402,-2.4110,27603
Melton Mowbray,52.7661,-0.8860,27158
Boscombe,50.7250,-1.8400,20719
Barnstaple,51.0800,-4.0600,24033
Chichester,50.8365,-0.7792,26795
Newton Mearns,55.7716,-4.3347,27660
Bilston,52.5660,-2.0728,25576
Didcot,51.6060,-1.2410,26920
Shotley Bridge,54.8700,-1.8600,27394
Stepney,51.5152,-0.0462,16238
Billericay,51.6280,0.4184,27998
Bournville,52.4299,-1.9355,25938
Leyton,51.5606,-0.0155,14184
Newton Aycliffe,54.6200,-1.5800,26633
Walton upon Thames,51.3868,-0.4133,22834
Eastleigh,50.9667,-1.3500,24011
Cheadle Hulme,53.3761,-2.1897,26479
Hindley,53.5355,-2.5658,25001
Haverhill,52.0800,0.4400,27041
Northfield,52.4080,-1.9630,25707
Burntwood,52.6831,-1.9200,26049
Westhoughton,53.5490,-2.5290,24974
Leigh-on-Sea,51.5425,0.6535,22509
Clydebank,55.8997,-4.4006,25970
Dollis Hill,51.5641,-0.2341,14425
Wellington,52.7001,-2.5157,25554
Consett,54.8500,-1.8300,24828
Droylsden,53.4828,-2.1582,22689
Balham,51.4434,-0.1525,14751
Harborne,52.4600,-1.9500,23001
Shenley Brook End,52.0090,-0.7890,25828
Bloxwich,52.6140,-2.0040,25401
Upminster,51.5557,0.2512,25361
Littleover,52.9060,-1.5050,23958
Fleetwood,53.9230,-3.0150,25939
Highgate,51.5716,-0.1448,10955
Market Harborough,52.4775,-0.9206,22911
Oadby,52.5987,-1.0763,23849
Erdington,52.5236,-1.8378,22828
Penarth,51.4300,-3.1700,22083
Acomb,53.9550,-1.1260,22215
Portishead,51.4840,-2.7626,25000
Caversham,51.4670,-0.9730,23885
Kings Norton,52.4072,-1.9272,24380
Hackney,51.5414,-0.0266,11734
Bishopbriggs,55.9046,-4.2250,23820
Thornaby on Tees,54.5556,-1.3049,24741
Stalybridge,53.4834,-2.0400,23731
Kingswinford,52.4981,-2.1657,25191
Farnley,53.7876,-1.6159,24213
Alfreton,53.0970,-1.3800,22302
Elgin,57.6500,-3.3150,24320
Felixstowe,51.9639,1.3515,23689
Camborne,50.2130,-5.3000,21600
Atherton,53.5230,-2.4950,22000
Stanmore,51.6180,-0.3140,23700
Failsworth,53.5102,-2.1575,20680
Whitefield,53.5521,-2.2992,23283
Belper,53.0290,-1.4750,21822
Clevedon,51.4380,-2.8540,21281
Litherland,53.4727,-2.9990,22242
Chandlers Ford,50.9840,-1.3792,21436
Penwortham,53.7400,-2.7200,23047
Kidsgrove,53.0874,-2.2478,23756
Guiseley,53.8750,-1.7060,22347
Northwood,51.6010,-0.4176,22047
Swinton,53.5122,-2.3412,22931
Penistone,53.5250,-1.6290,22909
Holborn,51.5172,-0.1182,13023
Ossett,53.6800,-1.5800,21231
Dronfield,53.3024,-1.4664,21261
Friern Barnet,51.6126,-0.1584,17250
Kenilworth,52.3410,-1.5660,22413
Maesteg,51.6100,-3.6500,21000
Sheldon,52.4500,-1.7666,21817
Normanton,53.6970,-1.4160,20872
Bispham,53.8520,-3.0410,20001
Stratton Saint Margaret,51.5860,-1.7620,22698
March,52.5510,0.0880,22298
Palmers Green,51.6178,-0.1092,15162
Hornsey,51.5870,-0.1180,12659
Falmouth,50.1500,-5.0700,21797
Royton,53.5660,-2.1210,21284
Linslade,51.9243,-0.6774,21590
Newquay,50.4120,-5.0757,20342
Plumstead,51.4900,0.0900,16736
Chesham,51.7120,-0.6120,21483
Newton in Makerfield,53.4500,-2.6330,22114
Neath,51.6600,-3.8100,19258
Renfrew,55.8791,-4.3868,21854
Horwich,53.5920,-2.5400,20067
Cottingham,53.7822,-0.4136,17164
Southgate,51.6316,-0.1265,14454
Tewkesbury,51.9900,-2.1600,19778
Southbourne,50.7220,-1.7980,18960
Peterlee,54.7600,-1.3300,20164
Kirkstall,53.8160,-1.6020,20673
Penzance,50.1190,-5.5370,21200
Shoreham-by-Sea,50.8340,-0.2730,20547
Seaham,54.8400,-1.3400,20172
Biddulph,53.1200,-2.1700,19892
Killingworth,55.0318,-1.5557,20079
Caterham,51.2803,-0.0816,21030
Bellshill,55.8165,-4.0262,20650
Worcester Park,51.3752,-0.2390,16031
Davyhulme,53.4559,-2.3683,19634
Alloa,56.1160,-3.7930,20730
Llandudno,53.3250,-3.8260,20701
Bathgate,55.9024,-3.6431,20363
Rothwell,53.7485,-1.4780,20354
Goodmayes,51.5584,0.1119,13069
Burnham-on-Sea,51.2376,-2.9935,19576
Quedgeley,51.8250,-2.2800,17519
Dukinfield,53.4739,-2.0828,19306
Prestatyn,53.3310,-3.4050,18849
Dingle,53.3774,-2.9613,13246
East Barnet,51.6430,-0.1630,16137
Molesey,51.4010,-0.3630,19088
Connahs Quay,53.2179,-3.0573,16774
Truro,50.2600,-5.0510,18766
Liversedge,53.7067,-1.6900,19420
Antrim,54.7173,-6.2055,19986
Linlithgow,55.9791,-3.6105,19000
Keynsham,51.4135,-2.4968,16641
Moreton,53.4010,-3.1110,17670
Bedlington,55.1330,-1.5830,18470
Woodhouse,53.3580,-1.3730,17450
Westbury,51.2600,-2.1910,16989
Hadleigh,51.5535,0.6095,18300
Kew Green,51.5308,-0.2248,14915
Calne,51.4380,-2.0050,17274
Nantwich,53.0670,-2.5220,17424
Abbots Langley,51.7010,-0.4160,19574
Hampton,51.4220,-0.3670,19372
Johnstone,55.8346,-4.5027,16625
Patcham,50.8640,-0.1500,14277
Dawlish,50.5810,-3.4660,15954
Mickleover,52.9010,-1.5520,18000
Redhill,51.2393,-0.1726,18163
Hebburn,54.9718,-1.5128,16492
Horsforth,53.8341,-1.6429,18895
Hednesford,52.7115,-2.0006,17343
Birstall,53.7343,-1.6609,16298
Moston,53.5156,-2.1848,14518
Staines-upon-Thames,51.4330,-0.5170,18484
Wibsey,53.7672,-1.7728,14671
Cowley,51.7330,-1.2150,16500
Porthcawl,51.4800,-3.6900,16005
New Brighton,53.4320,-3.0490,15149
Bingley,53.8509,-1.8380,15925
Belgrave,52.6566,-1.1262,11558
Baguley,53.3990,-2.2760,14794
Warminster,51.2050,-2.1810,17490
West Derby,53.4338,-2.9070,14382
Haslingden,53.7050,-2.3280,16849
Sunbury,51.4230,-0.4240,18041
Stoke Gifford,51.5170,-2.5480,15494
Nailsea,51.4300,-2.7600,15630
Cleckheaton,53.7250,-1.7190,16622
Shirley,51.3813,-0.0543,14296
Leagrave,51.9030,-0.4660,12910
Cosham,50.8424,-1.0660,13830
Enfield Lock,51.6686,-0.0260,16469
Harwich,51.9340,1.2660,17684
Saffron Walden,52.0220,0.2430,15504
Basford,52.9780,-1.1690,16207
Tyldesley,53.5166,-2.4667,16142
Hilsea,50.8300,-1.0700,13552
Stone,52.9000,-2.1500,16385
The Mumbles,51.5730,-3.9992,16600
Fazakerley,53.4676,-2.9408,16786
Maldon,51.7318,0.6758,14220
Wombwell,53.5160,-1.4000,15316
Tilbury,51.4606,0.3582,12450
Larkhall,55.7370,-3.9720,14951
Clayton,53.7820,-1.8135,16982
Milton,53.0500,-2.1420,17250
Kidbrooke,51.4650,0.0330,14300
Shipley,53.8330,-1.7770,15483
Whickham,54.9456,-1.6726,16652
Deysbrook,53.4290,-2.9340,14490
Barton upon Irwell,53.4760,-2.3600,12462
Bonnyrigg,55.8747,-3.1031,15677
Partick,55.8699,-4.3125,8884
Netherton,52.4908,-2.0835,15017
Seacroft,53.8222,-1.4599,14246
Baildon,53.8510,-1.7630,15360
Harrow Weald,51.6040,-0.3390,11376
Addlestone,51.3695,-0.4901,15883
Pemberton,53.5360,-2.6738,13982
West Wickham,51.3765,-0.0193,14276
Saltash,50.4080,-4.2120,16184
Wellington,50.9755,-3.2243,14549
Hazel Grove,53.3750,-2.1110,15265
Northenden,53.4075,-2.2583,15200
Prestwick,55.4956,-4.6142,14750
Buckley,53.1720,-3.0860,15665
Rock Ferry,53.3730,-3.0080,14298
Banstead,51.3220,-0.2040,16666
Hythe,51.0716,1.0840,14516
Clitheroe,53.8711,-2.3916,16279
Bromborough,53.3360,-2.9780,14850
Melksham,51.3710,-2.1380,14677
Yiewsley,51.5130,-0.4710,12979
Bidston,53.4020,-3.0780,15216
Forfar,56.6442,-2.8884,14048
Bebington,53.3500,-3.0030,15768
Pendlebury,53.5075,-2.3154,13069
Gornalwood,52.5230,-2.1240,12992
Llantrisant,51.5423,-3.3785,15313
Hessle,53.7239,-0.4319,15000
Royston,52.0471,-0.0202,15781
Amblecote,52.4600,-2.1600,13393
Saint Budeaux,50.4033,-4.1856,13369
Selby,53.7818,-1.0703,14731
Stapleford,52.9290,-1.2740,15241
Bourne,52.7684,-0.3775,13961
West Drayton,51.5043,-0.4646,14370
Perivale,51.5383,-0.3192,15339
Kidlington,51.8230,-1.2910,13723
Rosyth,56.0339,-3.4323,13440
Brierley Hill,52.4795,-2.1245,13935
Swinton,53.4877,-1.3149,15559
Little Hulton,53.5300,-2.4180,13469
Marlow,51.5700,-0.7800,14004
Caerfyrddin,51.8560,-4.3160,14185
Rossington,53.4759,-1.0613,13557
Stanley,53.7145,-1.4760,15314
Lowton,53.4710,-2.5690,14605
Ringwood,50.8500,-1.7800,13943
Sudbury,51.5537,-0.3199,14950
Ilkley,53.9250,-1.8220,14809
Ovenden,53.7432,-1.8779,12351
Childwall,53.3950,-2.8810,14085
Verwood,50.8815,-1.8785,13969
Whitby,54.4858,-0.6206,13213
Hetton le Hole,54.8208,-1.4488,14402
Egg Buckland,50.4006,-4.1136,13351
Hawick,55.4220,-2.7870,14294
Wanstead,51.5778,0.0286,11543
Newport Pagnell,52.0870,-0.7220,15118
Tilehurst,51.4579,-1.0406,14683
Shenley Church End,52.0220,-0.7880,12961
Chaddesden,52.9301,-1.4383,13413
Smethwick,52.4928,-1.9682,14146
Coseley,52.5500,-2.0830,12357
Brackley,52.0320,-1.1470,13018
Armthorpe,53.5352,-1.0522,14457
Milngavie,55.9421,-4.3137,13537
Bodmin,50.4660,-4.7180,14736
Redruth,50.2330,-5.2240,14018
Walsall Wood,52.6277,-1.9301,13207
Hollinwood,53.5183,-2.1440,10920
Streetly,52.5770,-1.8840,13934
Fraserburgh,57.6930,-2.0050,13100
Conisbrough,53.4790,-1.2270,14333
Thorpe Saint Andrew,52.6354,1.3431,14556
Blunsdon Saint Andrew,51.6100,-1.7900,12414
Evington,52.6210,-1.0720,11133
Broughty Ferry,56.4672,-2.8699,13155
Milford Haven,51.7142,-5.0427,13907
Bredbury,53.4200,-2.1130,13593
Little Lever,53.5630,-2.3690,12803
Thatto Heath,53.4352,-2.7481,12280
Sedgley,52.5400,-2.1230,12087
Minehead,51.2038,-3.4738,11981
Wollaston,52.4619,-2.1663,13092
Broadwater,50.8282,-0.3742,9373
Buckingham,51.9950,-0.9860,12890
Castle Bromwich,52.5050,-1.7856,11217
Aylestone,52.6040,-1.1540,11151
Chard,50.8728,-2.9587,13074
Spitalfields,51.5166,-0.0750,10286
Bryn,53.4990,-2.6570,11662
Sutton on Hull,53.7806,-0.3047,12649
Midsomer Norton,51.2842,-2.4817,13000
Southwick,50.8360,-0.2390,13195
Longbenton,55.0000,-1.5700,10617
Pelsall,52.6310,-1.9720,11505
Thornbury,51.6094,-2.5249,12342
Allestree,52.9519,-1.4856,13622
Lye,52.4590,-2.1160,12346
Brownhills,52.6470,-1.9330,12676
Stranraer,54.9020,-5.0270,10851
Fenton,52.9977,-2.1578,12070
Knutsford,53.3025,-2.3708,13191
Chepstow,51.6420,-2.6750,12350
Chilwell,52.9160,-1.2350,12864
Corsham,51.4300,-2.1900,13000
Hamworthy,50.7207,-2.0109,13141
Devizes,51.3530,-1.9940,11715
Wordsley,52.4830,-2.1500,12582
Snaresbrook,51.5870,0.0146,11868
Broughton Astley,52.5278,-1.2275,11940
Lambeth,51.4903,-0.1193,9675
Wallingford,51.5990,-1.1250,11600
Timperley,53.3870,-2.3280,11061
Parkstone,50.7100,-1.9500,10779
Sandridge,51.7808,-0.3038,11451
Olton,52.4377,-1.8058,12167
Woolton,53.3740,-2.8650,12921
Killamarsh,53.3205,-1.3116,9445
Prescot,53.4220,-2.8140,11184
Huntington,53.9926,-1.0430,12108
Caldicot,51.5910,-2.7492,12230
Abergavenny,51.8240,-3.0167,12515
Hwlffordd,51.8000,-4.9700,12042
Abertillery,51.7300,-3.1300,11601
Hoyland Nether,53.4985,-1.4406,11852
Bargoed,51.6900,-3.2400,11900
Carnoustie,56.5005,-2.7147,11394
Ashby de la Zouch,52.7460,-1.4760,12370
Tonyrefail,51.5840,-3.4306,12301
Wath upon Dearne,53.5022,-1.3402,11816
Alsager,53.0961,-2.3048,11775
Haydock,53.4678,-2.6609,11416
Cudworth,53.5784,-1.4149,10977
Brislington,51.4316,-2.5439,11511
Shoeburyness,51.5316,0.7978,11159
Cowley,51.5280,-0.4810,8776
Halstead,51.9451,0.6411,11906
Wealdstone,51.5957,-0.3352,11394
Gillingham,51.0375,-2.2748,11756
Oakham,52.6705,-0.7333,10922
Hatch End,51.6010,-0.3743,10693
Lemington,54.9720,-1.7230,10228
Street,51.1235,-2.7381,11805
Cowes,50.7595,-1.3002,10405
Raynes Park,51.4033,-0.2321,9738
Burslem,53.0426,-2.1879,11314
Ryhope,54.8679,-1.3698,10484
Bishops Cleeve,51.9470,-2.0610,10612
Helston,50.1000,-5.2700,11178
Royston,53.6100,-1.4500,10728
Kippax,53.7669,-1.3705,9785
Bishopstoke,50.9679,-1.3278,9974
Risca,51.6080,-3.0910,11693
Glascote,52.6245,-1.6680,8344
Cheam,51.3600,-0.2100,10285
Henley on Thames,51.5360,-0.8980,11619
Aberaman,51.7000,-3.4333,9964
Torpoint,50.3760,-4.2050,8364
Tavistock,50.5450,-4.1500,11018
Cupar,56.3200,-3.0100,9200
Marton,54.5406,-1.2124,9990
Stanwell,51.4570,-0.4715,11279
Brierfield,53.8240,-2.2350,8193
Chatteris,52.4560,0.0550,10453
Ifield,51.1234,-0.2073,8882
Buckhurst Hill,51.6320,0.0360,11380
Newport,52.7691,-2.3787,11387
Eaton Socon,52.2200,-0.2900,9042
Horsell,51.3286,-0.5617,9384
Whitchurch,52.9690,-2.6820,9781
Stocksbridge,53.4780,-1.5880,9869
Kilsyth,55.9800,-4.0600,9860
Barnoldswick,53.9147,-2.1895,10752
Flixton,53.4470,-2.3910,10786
Handsworth,53.3700,-1.4000,9957
Hellesdon,52.6485,1.2509,10957
Shepton Mallet,51.1930,-2.5460,10369
Inverurie,57.2800,-2.3800,10885
Blackwood,51.6700,-3.1900,8496
Exhall,52.4700,-1.4800,8006
Caernarfon,53.1400,-4.2700,9852
Shildon,54.6300,-1.6500,9976
Nairn,57.5860,-3.8690,9773
Roby,53.4130,-2.8520,7254
Broadstone,50.7605,-1.9950,10303
Bradford-on-Avon,51.3470,-2.2510,9402
Worsley,53.5093,-2.3845,10090
Chapeltown,53.4620,-1.4660,10043
Warfield,51.4420,-0.7370,10088
Utley,53.8800,-1.9100,5500
Larbert,56.0229,-3.8260,9143
Allington,51.2903,0.5019,7100
Heybridge,51.7417,0.6897,8175
Tottington,53.6130,-2.3390,9783
Dinnington,53.3667,-1.2000,9077
Barwell,52.5682,-1.3462,9022
Greenhill,51.3600,1.1030,7339
Clayton le Moors,53.7750,-2.3840,8522
Dowlais,51.7585,-3.3416,6926
Saint Peters,51.3651,1.4191,7042
Lydney,51.7286,-2.5285,8766
Llantwit Major,51.4062,-3.4750,9486
Gedling,52.9750,-1.0810,6817
Kirkwall,58.9810,-2.9600,9293
Launceston,50.6350,-4.3540,9216
Birtley,54.9000,-1.5770,8367
Tiptree,51.8100,0.7500,9182
Woodbridge,52.0940,1.3180,7749
Boxley,51.3024,0.5429,9554
Thornhill,53.6622,-1.6124,6875
Brandon,52.4474,0.6242,9145
Mountain Ash,51.6814,-3.3792,7374
Cam,51.7000,-2.3667,8152
Sandiacre,52.9230,-1.2910,8889
Leven,56.1950,-2.9942,8850
Leavesden Green,51.6967,-0.3991,5612
Glastonbury,51.1485,-2.7140,8932
Dunbar,56.0027,-2.5169,8486
Narborough,52.5727,-1.2023,8448
Bolton upon Dearne,53.5197,-1.3148,6744
Cullercoats,55.0330,-1.4330,9202
Yarm,54.5050,-1.3480,8384
Stopsley,51.8990,-0.3960,7760
Rye,50.9500,0.7300,9041
Westgate on Sea,51.3814,1.3381,6996
Great Burstead,51.6040,0.4450,5968
Newbold,53.2519,-1.4461,7962
Sundon,51.9200,-0.4700,7585
Woodchurch,53.3750,-3.0840,8400
Rothwell,52.4254,-0.8029,7694
Bedwas,51.5926,-3.2061,8512
Stonehouse,51.7478,-2.2838,7725
Bramley,53.4253,-1.2648,8194
Cross Gates,53.8063,-1.4506,7770
Pyle,51.5291,-3.6953,7405
Stainforth,53.5958,-1.0253,6282
Bucksburn,57.1770,-2.1750,8131
West Auckland,54.6318,-1.7210,8509
Marlborough,51.4200,-1.7300,8395
Gowerton,51.6480,-4.0430,8183
Shifnal,52.6650,-2.3730,7009
Oban,56.4120,-5.4720,8575
Latchford,53.3796,-2.5645,7856
Harworth,53.4170,-1.0750,7948
Gorleston-on-Sea,52.5757,1.7235,5548
Penryn,50.1690,-5.1070,6812
Church,53.7550,-2.3860,5186
Anstey,52.6715,-1.1955,6528
Wickersley,53.4199,-1.2792,7392
Cromer,52.9310,1.3020,7683
Wistaston,53.0821,-2.4747,8117
Cramond,55.9797,-3.3007,7502
Kirkham,53.7820,-2.8700,7194
Radlett,51.6850,-0.3180,8024
Godmanchester,52.3176,-0.1725,6711
Clowne,53.2760,-1.2630,7447
Coppull,53.6200,-2.6610,7959
Crieff,56.3757,-3.8426,7368
Hucknall under Huthwaite,53.1250,-1.3010,7500
Frampton Cotterell,51.5400,-2.4800,6520
Whetstone,52.5724,-1.1799,6556
Thrapston,52.3970,-0.5380,6239
Duntocher,55.9240,-4.4170,6850
Aintree,53.4793,-2.9373,6689
Partington,53.4200,-2.4300,7327
Highbridge,51.2189,-2.9730,5986
Pembroke,51.6760,-4.9158,7552
Thames Ditton,51.3890,-0.3310,6307
Brechin,56.7299,-2.6553,7199
Llantwit Fardre,51.5578,-3.3341,6099
Barrowford,53.8510,-2.2210,6171
Littleborough,53.6440,-2.0980,7467
Sherburn in Elmet,53.7973,-1.2331,6657
Dinas Powys,51.4331,-3.2134,7490
Withernsea,53.7285,0.0382,6159
Wadsley,53.4100,-1.5200,5631
Wardle,53.6470,-2.1320,7092
Govan,55.8615,-4.3083,5860
Kirriemuir,56.6692,-3.0051,6061
Porth,51.6138,-3.4095,5970
Tettenhall,52.5983,-2.1680,5225
Harlescott,52.7365,-2.7226,5060
Long Ditton,51.3850,-0.3210,6343
Sawston,52.1247,0.1731,7145
Ashbourne,53.0160,-1.7310,7112
Alcester,52.2150,-1.8760,6273
Dursley,51.6811,-2.3543,6697
Stepps,55.8908,-4.1522,6730
Lerwick,60.1550,-1.1450,6958
Saltburn-by-the-Sea,54.5828,-0.9732,5958
Billinge,53.4932,-2.7129,6554
Broughton,53.5638,-0.5465,5726
Filey,54.2101,-0.2893,6981
Cove,51.2965,-0.7939,6548
Stansted Mountfitchet,51.8980,0.1980,6011
Lexden,51.8833,0.8667,5549
Budleigh Salterton,50.6284,-3.3205,6575
Long Ashton,51.4300,-2.6500,6044
Cheddar,51.2790,-2.7780,5755
Pontardawe,51.7220,-3.8510,6832
Dore,53.3268,-1.5345,5496
North Petherton,51.0910,-3.0130,6730
Egham,51.4290,-0.5480,6384
Pontardulais,51.7100,-4.0400,6281
Frimley,51.3143,-0.7387,6178
Great Wakering,51.5516,0.8165,5587
Griffithstown,51.6853,-3.0284,5450
Littlemore,51.7200,-1.2270,5646
Heage,53.0500,-1.4470,5013
Handforth,53.3500,-2.2160,6266
Galleywood,51.6970,0.4740,5738
Harleston,52.4024,1.2996,5067
Tadcaster,53.8852,-1.2620,6003
Great Meols,53.4014,-3.1553,5110
Amble,55.3306,-1.5783,6025
Wotton-under-Edge,51.6380,-2.3490,5627
Paulton,51.3069,-2.5027,5303
Stotfold,52.0180,-0.2280,6190
Hoylake,53.3900,-3.1800,5710
Arlesey,52.0070,-0.2654,5584
Wincanton,51.0559,-2.4102,5272
Tetbury,51.6360,-2.1580,5472
Ormesby,54.5492,-1.1817,5942
Hengoed,51.6500,-3.2300,5548
Brynmawr,51.7960,-3.1830,5530
Magor,51.5798,-2.8312,6140
Malmesbury,51.5840,-2.0980,5380
Newent,51.9302,-2.4048,5207
Elderslie,55.8306,-4.4842,5634
Sheriff Hill,54.9390,-1.5860,5051
Pinchbeck,52.8147,-0.1605,5153
Chickerell,50.6240,-2.5047,5515
Radstock,51.2930,-2.4480,5620
Waterbeach,52.2664,0.1908,5166
Brotton,54.5680,-0.9370,5394
Brayton,53.7682,-1.0907,5299
Cwmbach,51.7072,-3.4128,5117
Bradford,53.8000,-1.7500,67
Cambridge,52.2053,0.1192,66
Oldham,53.5444,-2.1169,96555
Sutton Coldfield,52.5630,-1.8220,95107
Hastings,50.8500,0.5700,92855
Southport,53.6475,-3.0053,90381
Grimsby,53.5595,-0.0680,88243
Halifax,53.7250,-1.8630,88134
Stockton-on-Tees,54.5700,-1.3200,85000
Redditch,52.3069,-1.9492,81919
Chester,53.1900,-2.8900,79645
Guildford,51.2365,-0.5703,77057
Burnley,53.7890,-2.2480,73021
Shrewsbury,52.7080,-2.7540,71715
Lisburn,54.5167,-6.0333,71465
Keighley,53.8670,-1.9110,70000
Stafford,52.8066,-2.1171,68472
Torquay,50.4700,-3.5300,65245
Hornchurch,51.5565,0.2128,63583
Sittingbourne,51.3400,0.7400,62500
Woking,51.3162,-0.5610,62796
Rhondda,51.6159,-3.4175,62545
Margate,51.3850,1.3838,61223
Runcorn,53.3410,-2.7290,61789
Morecambe,54.0730,-2.8700,60768
Livingston,55.8834,-3.5157,57030
Brentwood,51.6204,0.3050,54885
Clacton-on-Sea,51.7918,1.1457,56874
Canterbury,51.2800,1.0800,55240
Corby,52.4914,-0.6965,54927
Horsham,51.0620,-0.3250,50934
Leith,55.9800,-3.1700,50030
Christchurch,50.7300,-1.7800,48368
Cwmbran,51.6530,-3.0210,48535
Durham,54.7761,-1.5733,48069
Kilmarnock,55.6111,-4.4957,46450
Chippenham,51.4585,-2.1158,45620
Winchester,51.0632,-1.3080,45184
Wallsend,54.9910,-1.5340,43826
Coatbridge,55.8625,-4.0266,43920
Grantham,52.9180,-0.6380,44580
Sidcup,51.4263,0.1024,43109
Middleton,53.5550,-2.1870,42972
Bexhill,50.8424,0.4676,43478
Worksop,53.3042,-1.1244,41820
King's Lynn,52.7543,0.3976,42800
Leigh,53.4975,-2.5150,41275
Bury Saint Edmunds,52.2474,0.7183,40664
Greenock,55.9500,-4.7650,41990
Tonbridge,51.1987,0.2764,40356
Farnham,51.2150,-0.7990,39488
Tipton,52.5259,-2.0751,38777
Andover,51.2080,-1.4800,38290
Eccles,53.4824,-2.3390,38756
Hatfield,51.7620,-0.2280,39201
Great Yarmouth,52.6060,1.7290,38693
Skelmersdale,53.5500,-2.7760,38813
Houghton le Spring,54.8410,-1.4680,36746
Stirling,56.1166,-3.9369,37810
Boston,52.9740,-0.0214,35124
Billingham,54.6100,-1.2700,35165
Airdrie,55.8600,-3.9800,36620
Accrington,53.7534,-2.3638,35456
Leyland,53.6920,-2.6970,35578
Woodley,51.4530,-0.9020,35470
Colwyn Bay,53.2900,-3.7000,34284
Exmouth,50.6200,-3.4130,34432
Windsor,51.4791,-0.6095,32608
Wickford,51.6114,0.5207,33486
Irvine,55.6201,-4.6614,34010
Dumfries,55.0700,-3.6030,33320
Epsom,51.3360,-0.2670,31489
Motherwell,55.7839,-3.9852,32480
Glossop,53.4430,-1.9490,33000
Winsford,53.1940,-2.5200,32610
Warwick,52.2800,-1.5900,31345
Whitstable,51.3610,1.0260,32100
Bedworth,52.4750,-1.4770,30648
Burgess Hill,50.9535,-0.1262,30635
Loughton,51.6494,0.0735,31106
Harpenden,51.8175,-0.3524,30240
Radcliffe,53.5615,-2.3268,29950
Carshalton,51.3652,-0.1676,29917
Sevenoaks,51.2781,0.1874,29506
Rushden,52.2880,-0.6010,29272
Northfleet,51.4400,0.3400,29474
Cannock,52.6910,-2.0270,29018
Heywood,53.5900,-2.2190,28205
Beverley,53.8450,-0.4270,29110
Stanford le Hope,51.5140,0.4244,28765
Witney,51.7800,-1.4900,27522
Ormskirk,53.5665,-2.8869,27343
Littlehampton,50.8094,-0.5409,27795
Jarrow,54.9797,-1.4804,27526
Stratford-upon-Avon,52.1928,-1.7064,27445
Ashford,51.4340,-0.4640,27382
East Grinstead,51.1290,-0.0070,26383
Thatcham,51.4050,-1.2640,26217
Fern Down,50.8100,-1.9000,26559
Bushey,51.6429,-0.3604,25763
Coulsdon,51.3211,-0.1386,25695
Congleton,53.1620,-2.2170,26482
Oldbury,52.5050,-2.0159,25488
New Milton,50.7600,-1.6500,25717
Daventry,52.2600,-1.1600,25026
Bishop Auckland,54.6566,-1.6768,25455
Wilmslow,53.3250,-2.2390,24497
Newport,50.7010,-1.2883,25496
Chester-le-Street,54.8594,-1.5699,24227
Broadstairs,51.3589,1.4394,24903
Golborne,53.4758,-2.5943,24169
Gosforth,55.0070,-1.6230,23620
Workington,54.6365,-3.5549,25207
Witham,51.7978,0.6373,25353
Whitehaven,54.5480,-3.5855,23986
Thetford,52.4100,0.7400,24340
Droitwich,52.2670,-2.1530,23504
Great Sankey,53.3918,-2.6383,24211
Pitsea,51.5690,0.5040,25000
Seaford,50.7700,0.1000,23463
Plymstock,50.3569,-4.0900,24103
Evesham,52.0920,-1.9470,23428
Rickmansworth,51.6383,-0.4659,23973
Marple,53.3970,-2.0610,23687
Wednesfield,52.5998,-2.0817,22646
Rugeley,52.7599,-1.9388,24033
Ashton in Makerfield,53.4870,-2.6410,24000
Formby,53.5586,-3.0666,22419
Bognor Regis,50.7824,-0.6764,24064
Horley,51.1740,-0.1720,22076
Huntingdon,52.3364,-0.1717,23732
Arbroath,56.5610,-2.5860,23490
Godalming,51.1800,-0.6100,21804
Rawtenstall,53.6990,-2.2910,22000
Calverley,53.8266,-1.6908,22594
East Retford,53.3228,-0.9431,22013
Kilwinning,55.6550,-4.7030,21693
Gainsborough,53.4016,-0.7732,22841
Yeadon,53.8690,-1.6880,22233
Haywards Heath,51.0048,-0.0979,22800
Buxton,53.2590,-1.9110,22215
Omagh,54.5900,-7.2900,21056
Pudsey,53.7970,-1.6630,22408
Darton,53.5850,-1.5325,21345
Hythe,50.8690,-1.3990,20526
Musselburgh,55.9420,-3.0540,21900
Waltham Abbey,51.6846,0.0004,21149
Maghull,53.5174,-2.9449,20444
Dumbarton,55.9500,-4.5667,20527
Reigate,51.2370,-0.2060,21820
Halewood,53.3599,-2.8400,20116
Potters Bar,51.6980,-0.1830,21639
Saint Austell,50.3386,-4.7922,19958
Wallington,51.3647,-0.1403,20850
Woodlesford,53.7567,-1.4530,21010
Kirkintilloch,55.9357,-4.1547,19700
Richmond,51.4560,-0.3010,21469
Leek,53.1080,-2.0234,20768
Garforth,53.7920,-1.3880,19811
Great Linford,52.0680,-0.7637,19350
Sandhurst,51.3490,-0.8000,20803
Ecclesall,53.3620,-1.4980,19211
Faversham,51.3177,0.8928,19316
Crowborough,51.0600,0.1600,20607
Ripley,53.0500,-1.4070,20807
Kirkby in Ashfield,53.0990,-1.2450,20672
Stamford,52.6560,-0.4840,19701
Hoddesdon,51.7590,-0.0150,20250
Hailsham,50.8647,0.2577,20476
Cirencester,51.7190,-1.9680,19076
South Ockendon,51.5207,0.2956,19460
Ely,52.3981,0.2622,20112
Adel,53.8489,-1.5849,19430
Mirfield,53.6807,-1.6888,19563
Eastwood,53.0180,-1.3040,18612
Skegness,53.1400,0.3400,19579
Goole,53.6992,-0.8692,19518
Irlam,53.4450,-2.4220,19933
Ebbw Vale,51.7779,-3.2117,18558
Lancing,50.8320,-0.3190,18810
Northwich,53.2590,-2.5180,19924
Wetherby,53.9276,-1.3839,19979
Spennymoor,54.7000,-1.5900,19816
Tiverton,50.9030,-3.4880,19544
Barrhead,55.8016,-4.3880,19813
Sandbach,53.1460,-2.3670,17976
Stowmarket,52.1900,1.0000,19280
Monkseaton,55.0430,-1.4590,19044
Romsey,50.9890,-1.4966,19441
Kempston,52.1140,-0.4970,19440
East Dereham,52.6810,0.9400,18609
Ramsbottom,53.6484,-2.3169,17872
Dorchester,50.7154,-2.4367,19060
Ware,51.8109,-0.0314,18799
Staveley,53.2694,-1.3484,18247
Mill Hill,51.6200,-0.2300,18451
Bideford,51.0160,-4.2090,17107
Appley Bridge,53.5790,-2.7210,18500
Poulton le Fylde,53.8470,-2.9950,18495
Aberystwyth,52.4140,-4.0810,18093
Heanor,53.0140,-1.3540,17251
Kilbirnie,55.7550,-4.6860,18829
Peterhead,57.5091,-1.7832,18537
Rawmarsh,53.4636,-1.3439,18498
Berkhampstead,51.7600,-0.5600,18500
Houghton Regis,51.9039,-0.5247,17280
Bramhall,53.3570,-2.1640,17436
Almondbury,53.6344,-1.7489,18346
Golcar,53.6378,-1.8457,17000
Fulwood,53.3650,-1.5440,18233
Maltby,53.4260,-1.2100,16688
Buckhaven,56.1776,-3.0303,16391
Grangemouth,56.0120,-3.7170,17906
Madeley,52.6370,-2.4480,17935
Northallerton,54.3378,-1.4285,16832
Colne,53.8554,-2.1756,17855
Mosbrough,53.3250,-1.3620,17097
Upton,53.3850,-3.0990,16130
Saint Ives,52.3344,-0.0761,16384
Alton,51.1498,-0.9769,17816
Braunstone,52.6160,-1.1750,16850
High Blantyre,55.7930,-4.0970,16900
Sleaford,52.9960,-0.4130,17671
Guisborough,54.5350,-1.0563,17777
Portchester,50.8420,-1.1200,17789
Glen Parva,52.5867,-1.1617,17189
Newmarket,52.2459,0.4105,16615
Thornton,53.7898,-1.8504,17276
Haslemere,51.0900,-0.7120,16826
Windlesham,51.3600,-0.6600,16775
Lewes,50.8756,0.0179,17297
Biggleswade,52.0855,-0.2557,16551
Ripon,54.1380,-1.5240,16702
Morriston,51.6647,-3.9389,16928
Hatfield,53.5800,-1.0000,16776
Heckmondwike,53.7080,-1.6700,16986
Heysham,54.0460,-2.8940,17016
Giffnock,55.8051,-4.2946,16178
East Finchley,51.5902,-0.1753,15989
Chertsey,51.3902,-0.5074,15967
Oswestry,52.8598,-3.0538,17105
Saint Andrews,56.3404,-2.7955,16801
Brixham,50.3940,-3.5160,16693
Neston,53.2890,-3.0740,15221
Wimborne Minster,50.8040,-1.9780,15552
Seacombe,53.4090,-3.0290,15387
Louth,53.3669,-0.0061,16419
Banbridge,54.3430,-6.2600,14744
Denby Dale,53.5720,-1.6550,16365
Tredegar,51.7776,-3.2407,15103
Weybridge,51.3620,-0.4530,15449
Wyke,53.7369,-1.7700,14950
Hayes,51.3780,0.0192,15906
Lymington,50.7500,-1.5500,15726
Uckfield,50.9700,0.1000,14493
Bangor,53.2280,-4.1280,16358
Penicuik,55.8260,-3.2200,15926
Queensbury,53.7683,-1.8453,16273
Adwick le Street,53.5677,-1.1931,15911
Conwy,53.2800,-3.8300,14723
Minster,51.4210,0.8090,14789
Whittlesey,52.5580,-0.1300,16058
Chislehurst,51.4120,0.0750,14831
Todmorden,53.7130,-2.0960,15481
Knaresborough,54.0084,-1.4670,15441
Thundersley,51.5700,0.5900,15600
Port Glasgow,55.9340,-4.6906,15414
Ince-in-Makerfield,53.5402,-2.5990,15664
Carterton,51.7600,-1.5900,15769
Totteridge,51.6354,-0.2000,15159
Winkfield,51.4318,-0.7096,14998
Featherstone,53.7000,-1.3700,15244
Helensburgh,56.0166,-4.7333,15430
Weston,53.4130,-2.7980,14263
Hemsworth,53.6100,-1.3500,15350
Burbage,52.5277,-1.3483,14568
Broxbourne,51.7495,-0.0216,15303
Petersfield,51.0038,-0.9345,14974
Ashtead,51.3100,-0.2990,14169
Blaydon,54.9630,-1.7187,15155
Swallownest,53.3623,-1.3251,15022
Poynton,53.3492,-2.1222,14260
Mackworth,52.9277,-1.5373,14180
Mexborough,53.4992,-1.2830,15244
Penrith,54.6648,-2.7548,15200
North Hykeham,53.1819,-0.5849,13884
Teignmouth,50.5515,-3.4886,15129
Skipton,53.9620,-2.0170,14623
Cowdenbeath,56.1100,-3.3500,14081
Clifton,53.9721,-1.0979,13548
Amersham,51.6770,-0.6030,14384
Wombourn,52.5302,-2.1857,14157
Morpeth,55.1675,-1.6908,14017
Wymondham,52.5700,1.1160,14405
Great Baddow,51.7190,0.5070,14650
Farnborough,51.3591,0.0741,14632
Troon,55.5400,-4.6600,14680
Sanderstead,51.3358,-0.0818,12777
Chelsfield,51.3582,0.1278,14507
Heswall,53.3280,-3.0990,13401
Kearsley,53.5300,-2.3700,14212
Milnrow,53.6101,-2.1111,13061
Bo'ness,56.0168,-3.6089,14490
Cliftonville,51.3881,1.4046,12900
Shirebrook,53.2048,-1.2197,13300
Middlewich,53.1920,-2.4430,13595
Eastham,53.3130,-2.9620,13882
Chalfont Saint Peter,51.6070,-0.5560,12766
Bickley,51.4003,0.0466,13904
West Boldon,54.9447,-1.4409,13271
Knottingley,53.7050,-1.2490,13710
Cheadle,52.9849,-1.9865,12165
Ystrad Mynach,51.6419,-3.2405,13500
Newhaven,50.8000,0.0600,12232
Dalkeith,55.8958,-3.0583,12342
Rustington,50.8102,-0.5052,13883
Great Driffield,54.0050,-0.4380,13080
Ampthill,52.0263,-0.4906,13307
Selston,53.0700,-1.3000,12596
Forres,57.6080,-3.6200,12587
Otley,53.9050,-1.6870,13668
Cumnock,55.4529,-4.2638,13000
Wells,51.2090,-2.6470,12000
Rottingdean,50.8150,-0.0650,13651
Bridport,50.7336,-2.7584,13569
Broxburn,55.9340,-3.4710,12000
Hersham,51.3681,-0.4008,12414
Bacup,53.7040,-2.1990,13323
Shepshed,52.7711,-1.2951,13505
Carluke,55.7337,-3.8343,13300
Flint,53.2482,-3.1358,12953
Ainsdale,53.6021,-3.0405,12723
Standish,53.5860,-2.6640,13278
Uttoxeter,52.8980,-1.8600,13089
Costessey,52.6602,1.2161,12463
Alexandria,55.9800,-4.5800,13444
Gourock,55.9538,-4.8173,11511
North Walsham,52.8210,1.3870,12634
Sudbury,52.0417,0.7282,13063
Chigwell,51.6225,0.0723,12449
Harrow on the Hill,51.5655,-0.3327,12270
Bridgnorth,52.5350,-2.4195,12079
Bolsover,53.2304,-1.2875,11673
Honiton,50.8000,-3.1900,11822
Trentham,52.9663,-2.1899,11836
Wolverton,52.0626,-0.8102,12492
Syston,52.7000,-1.0800,12804
Crayford,51.4491,0.1812,11226
Flitwick,52.0038,-0.4966,12700
Sidmouth,50.6800,-3.2390,12569
Dorking,51.2340,-0.3318,11185
Chorleywood,51.6500,-0.5100,11286
Berwick-Upon-Tweed,55.7710,-2.0070,12043
Churchdown,51.8800,-2.1700,10990
Bamber Bridge,53.7281,-2.6606,12126
Ascot,51.4084,-0.6707,11603
Warsop,53.2000,-1.1500,11999
Dorridge,52.3720,-1.7554,11140
Croxley Green,51.6470,-0.4450,12562
Spondon,52.9200,-1.4010,12377
Beaconsfield,51.6009,-0.6347,12081
Horndean,50.9136,-0.9961,12639
Amesbury,51.1700,-1.7700,10724
Greetland,53.6869,-1.8714,11389
Mablethorpe,53.3409,0.2610,12531
Newtown,52.5132,-3.3141,11357
Darfield,53.5380,-1.3812,10685
Tranent,55.9450,-2.9540,12582
Galashiels,55.6194,-2.8033,12600
Elland,53.6830,-1.8400,11676
Sheerness,51.4410,0.7600,11938
Astley,53.5008,-2.4454,11270
Culcheth,53.4517,-2.5218,11454
Stainland,53.6728,-1.8805,11389
Rainhill,53.4157,-2.7625,10853
Bickenhill,52.4390,-1.7250,12456
Bottesford,53.5521,-0.6714,11038
Epping,51.7004,0.1087,11047
Thame,51.7500,-0.9700,11561
Saint Ives,50.2110,-5.4800,11226
Lymm,53.3834,-2.4750,12350
Rushall,52.6110,-1.9570,11871
Ulverston,54.1930,-3.0900,11678
New Mills,53.3670,-2.0070,12291
Hexham,54.9710,-2.1010,11829
Leominster,52.2282,-2.7385,11691
Knowsley,53.4498,-2.8501,11343
Rogerstone,51.5906,-3.0537,10158
Oswaldtwistle,53.7430,-2.3930,11803
Sowerby Bridge,53.7100,-1.9100,11703
Southwick,54.9193,-1.4062,10535
Ponteland,55.0480,-1.7470,10921
Holyhead,53.3090,-4.6330,11431
Montrose,56.7080,-2.4670,11955
Abergele,53.2800,-3.5800,10577
Great Wyrley,52.6593,-2.0102,11060
Sandy,52.1310,-0.2970,11657
Downham Market,52.6000,0.3900,9994
Torton,52.4522,-2.1606,11841
Wootton,52.2007,-0.8857,11180
Ivybridge,50.3890,-3.9210,11851
Sandown,50.6551,-1.1541,11868
Prudhoe,54.9610,-1.8490,11675
Market Drayton,52.9044,-2.4848,11773
Tring,51.7962,-0.6592,11730
Padiham,53.7970,-2.3110,10098
Englefield Green,51.4301,-0.5699,10607
Sunninghill,51.4050,-0.6560,11603
Choppington,55.1450,-1.6010,9787
Ross on Wye,51.9140,-2.5870,10700
North Tidworth,51.2370,-1.6640,10621
Southborough,51.1598,0.2652,11124
Iver,51.5210,-0.5070,11119
Royal Wootton Bassett,51.5330,-1.9000,11385
Whitburn,55.8621,-3.6872,10527
Eccleston,53.4539,-2.7748,10433
Hipperholme,53.7258,-1.8120,11308
Stonehaven,56.9640,-2.2110,11602
Bradwell,52.0500,-0.7870,9657
Selsey,50.7350,-0.7898,10737
Tadley,51.3506,-1.1376,11473
Cranleigh,51.1363,-0.4784,11241
Holywood,54.6360,-5.8450,11257
Leatherhead,51.2950,-0.3290,11316
Whitchurch,51.4064,-2.5594,11061
Largs,55.7940,-4.8670,11241
Blundellsands,53.4800,-3.0500,11514
Glenfield,52.6491,-1.2062,9643
Baldock,51.9900,-0.1900,9900
Eckington,53.3080,-1.3643,11152
Horbury,53.6595,-1.5566,10002
Kingsnorth,51.1178,0.8615,11243
Great Harwood,53.7860,-2.4080,10800
Oxted,51.2570,-0.0060,11314
Soham,52.3338,0.3361,10860
South Normanton,53.1070,-1.3430,9445
Wantage,51.5890,-1.4270,11327
Hucclecote,51.8500,-2.1800,10158
Maryport,54.7128,-3.4926,11262
Burtonwood,53.4302,-2.6614,11265
Monmouth,51.8100,-2.7200,10508
Saltcoats,55.6352,-4.7896,11260
Barton upon Humber,53.6833,-0.4500,11066
Bewdley,52.3752,-2.3162,9470
Emsworth,50.8490,-0.9380,9492
Ilfracombe,51.2080,-4.1200,11184
Shepperton,51.3900,-0.4600,9753
Charlton Kings,51.8877,-2.0413,10396
Skelton,54.5619,-0.9874,9526
Stannington,53.3960,-1.5360,10747
Snodland,51.3280,0.4467,10211
Methil,56.1844,-3.0223,10800
Mossley,53.5147,-2.0387,10921
Knowle,52.3881,-1.7318,10678
Wooburn,51.5810,-0.6910,10792
Earlestown,53.4500,-2.6500,10830
Ardrossan,55.6432,-4.8097,10952
Aylesford,51.3033,0.4796,10660
Desborough,52.4398,-0.8172,10697
Shevington,53.5720,-2.6900,10000
Felton,51.5100,-2.5740,10607
Scartho,53.5399,-0.0926,10408
Holbeach,52.8037,0.0154,10458
Aberbargoed,51.6968,-3.2240,9184
Kingsteignton,50.5458,-3.5962,10600
Blandford Forum,50.8560,-2.1648,10610
Abram,53.5080,-2.5880,9855
Pencoed,51.5228,-3.5047,9166
Castleton,53.5907,-2.1737,10159
Southwater,51.0238,-0.3526,10025
Balderton,53.0549,-0.7727,9757
Frodsham,53.2950,-2.7250,9077
Ickenham,51.5580,-0.4484,10387
Rhosllanerchrugog,53.0110,-3.0520,9694
Newburn,54.9830,-1.7430,9536
Birchington,51.3770,1.3050,9961
Bovingdon,51.7231,-0.5367,9000
Mold,53.1660,-3.1330,10058
Mildenhall,52.3446,0.5089,10315
Ludlow,52.3680,-2.7180,10266
Hockley,51.6014,0.6363,9616
Great Missenden,51.7042,-0.7078,10138
Fort William,56.8198,-5.1052,10459
Pembroke Dock,51.6933,-4.9458,9753
Felling,54.9500,-1.5640,8908
Hughenden,51.6558,-0.7490,8506
Appleton,53.3508,-2.5441,10265
Prestonpans,55.9597,-2.9610,10360
Bowdon,53.3760,-2.3660,9228
Oakengates,52.6950,-2.4510,8517
London Colney,51.7260,-0.3000,9507
Corfe Mullen,50.7701,-2.0175,10133
Liphook,51.0760,-0.8030,8491
Aldenham,51.6723,-0.3546,9942
Beccles,52.4580,1.5630,10123
Haxby,54.0160,-1.0750,8428
Welwyn,51.8310,-0.2150,8425
Chapel en le Frith,53.3220,-1.9170,8635
Mountsorrel,52.7167,-1.1500,8223
Crigglestone,53.6440,-1.5226,9271
Ollerton,53.2000,-1.0200,9840
Aveley,51.5018,0.2534,8381
Bude,50.8240,-4.5420,9222
Buckie,57.6760,-2.9650,8273
Haddington,55.9580,-2.7740,9944
Ramsey,52.4500,-0.1200,8479
Wilnecote,52.6081,-1.6677,9358
Towcester,52.1300,-0.9900,9252
Worsborough,53.5200,-1.4700,9516
Great Billing,52.2577,-0.8222,8457
Ellon,57.3660,-2.0860,9860
Sherborne,50.9469,-2.5171,9523
Carlton Colville,52.4540,1.6910,8505
Atherstone,52.5787,-1.5462,8670
Annan,54.9830,-3.2660,8389
Thurso,58.5960,-3.5210,7933
Bearsted,51.2738,0.5789,8010
Matlock,53.1400,-1.5500,9543
Holywell,53.2740,-3.2230,8886
Immingham,53.6139,-0.2183,9642
Bersted,50.7970,-0.6890,8496
Swanage,50.6080,-1.9600,9601
Ledbury,52.0339,-2.4235,9290
Irthlingborough,52.3240,-0.6140,8900
Coleford,51.7910,-2.6162,8359
Wadebridge,50.5170,-4.8350,7900
Audley,53.0530,-2.3040,8437
Hayle,50.1830,-5.4160,8939
Treorchy,51.6594,-3.5055,7681
Usworth,54.9400,-1.5500,9100
Shanklin,50.6310,-1.1734,9072
Sawbridgeworth,51.8140,0.1500,8458
Tanfield,54.8970,-1.7030,8270
Dunblane,56.1838,-3.9674,9000
Codsall,52.6267,-2.1924,7582
Great Dunmow,51.8730,0.3617,8830
Sompting,50.8303,-0.3395,8561
Clay Cross,53.1637,-1.4128,9222
Trumpington,52.1740,0.1090,8034
Stevenston,55.6450,-4.7580,9129
Hawkinge,51.1170,1.1638,8002
Currie,55.8960,-3.3074,7494
Wendover,51.7680,-0.7463,7399
Princes Risborough,51.7240,-0.8344,7978
Brewood,52.6769,-2.1738,7329
Brimington,53.2580,-1.3905,8788
Bingham,52.9520,-0.9530,9131
Shaftesbury,51.0059,-2.1969,7314
Ystradgynlais,51.7810,-3.7511,8092
Whitnash,52.2680,-1.5240,9129
Cockermouth,54.6613,-3.3620,8761
Whitwick,52.7403,-1.3556,8612
Portlethen,57.0610,-2.1300,9090
Armadale,55.8978,-3.7047,9063
Windermere,54.3760,-2.9070,8359
Cherry Hinton,52.1849,0.1760,8780
Hornsea,53.9108,-0.1676,8432
Ferryhill,54.6900,-1.5500,8942
Rhymney,51.7590,-3.2830,8845
Littleport,52.4568,0.3046,8738
Cinderford,51.8225,-2.4989,8494
Worplesdon,51.2720,-0.6120,8529
Diss,52.3812,1.1079,7572
Merstham,51.2640,-0.1530,8123
Horden,54.7640,-1.3150,8087
Byfleet,51.3400,-0.4700,7724
Caister-on-Sea,52.6510,1.7330,8901
Rainworth,53.1197,-1.1235,7821
Polesworth,52.6152,-1.6174,8423
Brecon,51.9480,-3.3910,8250
Kirk of Shotts,55.8230,-3.8040,8840
Rochford,51.5821,0.7065,8471
Old Colwyn,53.2910,-3.7040,8113
Walmer,51.2043,1.3985,8178
Upholland,53.5410,-2.7280,7376
Norton Canes,52.6833,-1.9666,7479
Ripponden,53.6720,-1.9460,7421
Sileby,52.7310,-1.1060,7835
Hadleigh,52.0440,0.9610,8253
Raunds,52.3450,-0.5370,8641
Pickering,54.2439,-0.7760,6830
Waltham Cross,51.6860,-0.0331,7407
Polegate,50.8216,0.2442,8586
Harlington,53.4810,-1.1820,8276
Binfield,51.4320,-0.7920,7880
Penkridge,52.7252,-2.1164,8526
Brightlingsea,51.8100,1.0300,8076
Paddock Wood,51.1756,0.3955,8263
Caerleon,51.6150,-2.9590,8061
Richmond,54.4030,-1.7370,8413
Strathaven,55.6770,-4.0650,7484
Whitworth,53.6630,-2.1770,7500
Rhos-on-Sea,53.3090,-3.7380,7593
Cullompton,50.8550,-3.3930,8499
Yatton,51.3855,-2.8256,7552
Billingshurst,51.0226,-0.4508,8232
Pocklington,53.9309,-0.7781,8337
Shinfield,51.4080,-0.9470,8136
Witley,51.1500,-0.6460,8130
Seaton,50.7050,-3.0780,8413
Coxhoe,54.7140,-1.5030,7020
East Cowes,50.7570,-1.2865,7010
Peebles,55.6500,-3.1800,8376
Bonnybridge,55.9990,-3.8870,6870
Hassocks,50.9233,-0.1509,7667
Warsash,50.8532,-1.3010,7183
Peasedown Saint John,51.3150,-2.4240,6446
Northam,51.0393,-4.2104,7489
Highworth,51.6310,-1.7120,8151
Dalton in Furness,54.1544,-3.1814,8125
Durrington,51.1990,-1.7750,7379
Egremont,54.4840,-3.5306,8194
Wroughton,51.5250,-1.7920,8033
Cleator Moor,54.5211,-3.5119,6936
Silsden,53.9140,-1.9370,8268
Coleshill,52.4990,-1.7080,6481
Lanark,55.6749,-3.7770,8253
Warlingham,51.3095,-0.0574,8036
Crowthorne,51.3700,-0.7920,6711
Stornoway,58.2090,-6.3870,8038
High Ackworth,53.6408,-1.3364,7049
Harefield,51.6034,-0.4780,7399
West Thurrock,51.4836,0.2820,7795
Bramcote,52.9340,-1.2420,7270
Watton,52.5713,0.8259,7202
Alnwick,55.4134,-1.7069,8116
Totnes,50.4320,-3.6840,8076
Hadfield,53.4600,-1.9700,6305
Clydach,51.6900,-3.9100,7503
Angmering,50.8288,-0.4846,7614
Titchfield,50.8491,-1.2344,7280
Lochgelly,56.1282,-3.3111,6834
Millom,54.2096,-3.2702,7829
Loftus,54.5569,-0.8919,7988
Crediton,50.7910,-3.6560,7835
Pershore,52.1140,-2.0800,7125
Chalford,51.7238,-2.1491,6215
Brockworth,51.8500,-2.1500,7387
Denny,56.0180,-3.9070,7934
Newport-On-Tay,56.4402,-2.9410,7922
Higham Ferrers,52.3057,-0.5844,7145
Bollington,53.2980,-2.0930,7885
Stony Stratford,52.0567,-0.8526,7736
Burley in Wharfedale,53.9137,-1.7480,7041
Wilmington,51.4309,0.1876,7178
Kelty,56.1330,-3.3800,6529
Edenbridge,51.1970,0.0650,7808
Fakenham,52.8356,0.8510,7617
Farington,53.7030,-2.6850,6674
Rainford,53.5030,-2.7830,7779
Kinvere,52.4488,-2.2280,7225
Waltham,53.5165,-0.1021,6413
Chobham,51.3480,-0.6040,7456
Crewkerne,50.8803,-2.7939,7000
Longridge,53.8310,-2.5970,7724
Tenterden,51.0696,0.6898,7735
Wick,58.4540,-3.0890,7333
Kingsbridge,50.2833,-3.7765,6116
Oundle,52.4800,-0.4720,5735
Treherbert,51.6722,-3.5306,5727
Boultham,53.2140,-0.5561,7465
Ilminster,50.9262,-2.9114,5808
Treharris,51.6689,-3.3100,6356
Wivenhoe,51.8667,0.9625,7637
Southwell,53.0780,-0.9550,7297
Denham,51.5630,-0.4990,7139
Pakefield,52.4510,1.7280,6563
Burton Latimer,52.3650,-0.6780,7449
Banchory,57.0550,-2.4900,7560
Market Deeping,52.6776,-0.3173,6008
Llandudno Junction,53.2840,-3.8090,6722
Swaffham,52.6529,0.6843,7258
Park Street,51.7220,-0.3390,6781
Bilton,52.3594,-1.2900,6175
Sheringham,52.9400,1.2130,7367
Cheadle,53.3933,-2.2113,5698
Rhoose,51.3906,-3.3524,6160
Wingerworth,53.2033,-1.4347,6533
Kingswood,51.2931,-0.2086,6891
Shenfield,51.6297,0.3192,5432
Great Bookham,51.2780,-0.3730,5596
Calverton,53.0370,-1.0830,7076
Humberston,53.5281,-0.0249,5634
Bannockburn,56.0900,-3.9100,7352
Houston,55.8670,-4.5521,6470
Abersychan,51.7239,-3.0587,7064
Crumlin,51.6798,-3.1368,5947
Whaley Bridge,53.3304,-1.9838,6455
Sturry,51.3036,1.1211,6820
Whitchurch,51.2300,-1.3400,7198
Nailsworth,51.6954,-2.2234,5794
Farnham Royal,51.5386,-0.6164,5972
Faringdon,51.6570,-1.5860,7121
Briton Ferry,51.6400,-3.8300,5911
Uddingston,55.8183,-4.0827,6710
Altofts,53.6970,-1.4160,6198
Cotgrave,52.9140,-1.0420,7203
North Berwick,56.0580,-2.7170,6605
Muxton,52.7200,-2.4210,6557
Ash Vale,51.2700,-0.7200,5686
Fordingbridge,50.9275,-1.7901,5998
Chipping Ongar,51.7030,0.2440,6093
West Byfleet,51.3380,-0.5033,5626
West Mersea,51.7784,0.9168,7183
Hedon,53.7395,-0.1948,7100
Church Gresley,52.7600,-1.5660,6881
Downside,51.3117,-0.4095,6564
Esher,51.3691,-0.3650,6743
Murston,51.3410,0.7524,5300
Pinhoe,50.7407,-3.4672,6454
New Romney,50.9850,0.9410,6996
Southam,52.2520,-1.3900,6567
Rishton,53.7701,-2.4187,6625
Bridge of Allan,56.1550,-3.9420,6762
Marshfield,51.5439,-3.0469,6270
Honley,53.6027,-1.7921,5897
Bothwell,55.8023,-4.0662,6458
Blythebridge,52.9704,-2.0709,5931
Meopham,51.3640,0.3600,6722
Eston,54.5600,-1.1440,7005
Abercynon,51.6445,-3.3267,6390
Wigton,54.8230,-3.1590,5831
Carlton,52.9670,-1.0880,6881
Newbridge,51.6700,-3.1360,6509
Carnforth,54.1230,-2.7660,5560
Preesall,53.9170,-2.9670,5694
Torrisholme,54.0660,-2.8300,6755
Ammanford,51.8000,-3.9930,5411
Freckleton,53.7530,-2.8670,6019
Haworth,53.8300,-1.9600,6379
Enderby,52.5881,-1.2092,6314
Newton Grange,55.8680,-3.0670,5341
Waddington,53.1664,-0.5389,6122
Battle,50.9200,0.4800,6673
Cheddleton,53.0640,-2.0430,6311
Oakley,51.2510,-1.1764,5086
Newbiggin-by-the-Sea,55.1830,-1.5150,6308
Sawtry,52.4400,-0.2800,6536
Thorpe,51.4069,-0.5354,5465
Southbourne,50.8450,-0.9081,6265
Horncastle,53.2080,-0.1140,6815
Malvern Link,52.1255,-2.3161,6155
Landore,51.6400,-3.9400,6168
Brixworth,52.3290,-0.9040,5162
Saint Blazey,50.3610,-4.7160,6799
Lossiemouth,57.7189,-3.2875,6803
Bishops Waltham,50.9536,-1.2118,6723
Danbury,51.7150,0.5820,6500
Cranbrook,51.0967,0.5356,6717
Kimberley,52.9970,-1.2550,6659
Countesthorpe,52.5550,-1.1400,6377
Bulkington,52.4769,-1.4250,6146
Polmont,55.9908,-3.7064,5321
New Alresford,51.0907,-1.1612,5431
Olney,52.1529,-0.7015,6477
Fishguard,51.9982,-4.9804,5407
South Molton,51.0200,-3.8300,5108
Illogan,50.2500,-5.2680,5404
Wirksworth,53.0820,-1.5740,5038
Ventnor,50.5976,-1.2084,5976
Colnbrook,51.4835,-0.5221,6157
Hunters Quay,55.9707,-4.9116,5198
East Leake,52.8320,-1.1770,6337
Stewarton,55.6800,-4.5150,6584
Market Weighton,53.8642,-0.6624,6429
Lydd,50.9509,0.9064,6567
Strensall,54.0401,-1.0344,6047
Dingwall,57.5970,-4.4280,6545
Treforest,51.5878,-3.3222,5050
Burwell,52.2750,0.3270,6309
Barrow upon Soar,52.7517,-1.1500,5856
Earlswood,51.2280,-0.1710,5049
South Elmsall,53.5959,-1.2726,6519
Bursledon,50.8847,-1.3117,6188
Blaby,52.5724,-1.1678,6194
Calstock,50.4970,-4.2100,6253
New Inn,51.6910,-3.0090,5986
Looe,50.3540,-4.4540,5112
Bungay,52.4496,1.4477,5127
Abercarn,51.6490,-3.1350,5352
Drayton,52.6750,1.2250,5489
Sidley,50.8600,0.4700,5718
Cuddington,53.2400,-2.6000,5333
Wem,52.8536,-2.7267,6100
Cottenham,52.2865,0.1244,6095
Blaenavon,51.7736,-3.0828,6055
Headley,51.1192,-0.8271,5613
Okehampton,50.7388,-4.0041,5922
Holmes Chapel,53.2040,-2.3530,5605
Beith,55.7533,-4.6319,6346
Chipping Norton,51.9400,-1.5500,6337
Tarleton,53.6780,-2.8410,5652
Gildersome,53.7590,-1.6322,5804
Burntisland,56.0600,-3.2310,6269
Pinxton,53.0905,-1.3237,5699
Glyncorrwg,51.6776,-3.6292,5283
Swanwick,53.0750,-1.3980,5084
Hethersett,52.5983,1.1833,5691
East Calder,55.8960,-3.4620,5790
Kirton,52.9278,-0.0598,5371
Dyce,57.2031,-2.1920,5811
Steyning,50.8868,-0.3279,5812
Dartmouth,50.3510,-3.5790,5064
Broughton,53.1690,-2.9850,5974
Welshpool,52.6597,-3.1473,5948
Sedgefield,54.6500,-1.4500,5211
Helmshore,53.6870,-2.3290,5805
Brigg,53.5529,-0.4850,5626
Woodville,52.7690,-1.5330,5161
Tillicoultry,56.1530,-3.7420,5900
Hordle,50.7603,-1.6212,5654
Adlington,53.6165,-2.5986,6010
Rhuthun,53.1150,-3.3120,5461
Lindfield,51.0135,-0.0833,5394
Askern,53.6167,-1.1500,5570
Writtle,51.7290,0.4270,5383
Crofton,53.6570,-1.4270,5781
Blean,51.3070,1.0430,5589
Bourne End,51.5817,-0.7134,5320
Hungerford,51.4140,-1.5150,5767
Axminster,50.7810,-3.0000,5761
Callington,50.5030,-4.3160,5786
Freshwater,50.6826,-1.5249,5369
Keswick,54.5999,-3.1293,5243
Leiston,52.2060,1.5790,5508
Drighlington,53.7568,-1.6616,5528
Martlesham,52.0733,1.2818,5478
Botley,50.9144,-1.2700,5100
Balerno,55.8852,-3.3375,5486
Aylsham,52.7900,1.2560,5504
Selkirk,55.5500,-2.8400,5784
Pyrford,51.3146,-0.5064,5022
Wareham,50.6860,-2.1099,5496
Duffield,52.9890,-1.4890,5046
Grangetown,54.5800,-1.1440,5088
Kelso,55.5985,-2.4336,5639
Elstree,51.6400,-0.3000,5110
Neilston,55.7847,-4.4234,5320
Ore,50.8721,0.6085,5195
Barnard Castle,54.5500,-1.9200,5495
Wool,50.6789,-2.2189,5310
Blackrod,53.5898,-2.5809,5001
Nursling,50.9449,-1.4727,5137
Quorndon,52.7428,-1.1700,5177
Dalry,55.7110,-4.7230,5398
Kinross,56.2050,-3.4230,5120
Alness,57.6950,-4.2580,5310
Tickhill,53.4305,-1.1135,5228
Henfield,50.9330,-0.2770,5012
Holmfirth,53.5700,-1.7870,5173
Llangefni,53.2560,-4.3140,5116
Chipping Sodbury,51.5380,-2.3940,5045
Turriff,57.5390,-2.4611,5060
Shipston on Stour,52.0600,-1.6230,5038
Peterborough,52.5833,-0.2500,82
Southend,51.5500,0.7100,93
Euxton,53.6620,-2.6740,9993
Worth,51.1130,-0.1470,9888
Dodworth,53.5417,-1.5214,9777
Cobham,51.3290,-0.4090,9739
Felpham,50.7905,-0.6539,9746
Tadworth,51.2940,-0.2420,9522
Burscough,53.5960,-2.8430,9182
Yaxley,52.5200,-0.2600,9174
Queensferry,55.9900,-3.3980,9026
Great Cornard,52.0245,0.7497,8908
Skewen,51.6609,-3.8399,8500
Canford Cliffs,50.7000,-1.9300,8620
Meltham,53.5920,-1.8500,8534
Aughton,53.5420,-2.9120,8342
Toton,52.9070,-1.2540,8238
Goffs Oak,51.7109,-0.0825,8172
Radcliffe on Trent,52.9470,-1.0400,8205
Merrow,51.2463,-0.5279,8036
Willerby,53.7633,-0.4504,7940
Seasalter,51.3456,0.9981,7967
Goring by Sea,50.8122,-0.4244,7990
Annfield Plain,54.8570,-1.7370,7774
Kinmel,53.3100,-3.5190,7864
Willesborough,51.1386,0.8957,7800
Hook,51.2773,-0.9633,7770
Kingsbury,52.5614,-1.6917,7652
Saint Agnes,50.3120,-5.2040,7565
Stonehouse,55.6968,-3.9824,7500
Braunton,51.1100,-4.1620,7353
Shenstone,52.6370,-1.8410,7359
Basing,51.2704,-1.0473,7232
Herne,51.3492,1.1331,7325
Claygate,51.3600,-0.3420,7168
Ruddington,52.8930,-1.1500,7216
Peterculter,57.0970,-2.2657,7220
Grove,51.6120,-1.4210,7178
Coundon,54.6637,-1.6341,7139
Deeping Saint James,52.6717,-0.2995,6923
Quarrington,52.9870,-0.4304,7046
Kirkleatham,54.5833,-1.0833,7045
Branston,52.7870,-1.6590,6749
Fishtoft,52.9617,0.0259,6835
Great Chart,51.1409,0.8372,6801
Sandycroft,53.1950,-2.9990,6724
Alvechurch,52.3506,-1.9647,6564
Sawley,52.8820,-1.2990,6629
Cwmafan,51.6155,-3.7717,6538
Chapelhall,55.8450,-3.9472,6560
Weaverham,53.2620,-2.5770,6391
Castle Donnington,52.8444,-1.3377,6416
Liss,51.0429,-0.8918,6291
Swanscombe,51.4491,0.2993,6300
Wheathampstead,51.8120,-0.2930,6410
Garswood,53.4880,-2.6700,6183
Lydiate,53.5360,-2.9590,6308
Newarthill,55.8100,-3.9333,6280
Stonewood,51.4450,0.2560,6100
Rowlands Gill,54.9209,-1.7441,6096
Orsett,51.5100,0.3700,6115
Pembury,51.1456,0.3224,6128
Hollington,50.8750,0.5480,6099
Chalfont Saint Giles,51.6320,-0.5760,5925
Pagham,50.7708,-0.7448,5941
Colney Heath,51.7353,-0.2564,5962
Lea Town,53.7740,-2.7950,5962
Staplehurst,51.1640,0.5530,6003
Great Warley Street,51.6070,0.3000,5973
Stoke Mandeville,51.7861,-0.7914,5825
Seaton Carew,54.6628,-1.1888,6018
Godstone,51.2480,-0.0640,5949
Burghfield,51.4110,-1.0420,5955
Bramley,51.3290,-1.0613,5875
Chinnor,51.7020,-0.9110,5924
Studley,52.2696,-1.8915,5879
East Preston,50.8104,-0.4819,5938
Wellesbourne Hastings,52.1943,-1.5947,5849
Cumnor,51.7350,-1.3320,5755
Ibstock,52.6870,-1.4010,5760
Markfield,52.6878,-1.2775,5681
Gorebridge,55.8436,-3.0500,5777
Bagshot,51.3607,-0.6982,5592
Marchwood,50.8900,-1.4540,5586
Longton,53.7290,-2.7970,5500
Wyke Regis,50.5920,-2.4750,5458
Hartford,53.2450,-2.5490,5515
Pannal,53.9609,-1.5362,5562
Bowling,55.9320,-4.4940,5500
Tidenham,51.6605,-2.6435,5486
Perranzabuloe,50.3260,-5.1330,5406
Hartley,51.3868,0.3037,5359
Barton on Sea,50.7428,-1.6552,5454
Sollom,53.6620,-2.8250,5350
Earls Barton,52.2630,-0.7460,5387
Bilton,54.0099,-1.5359,5409
Bidford-on-Avon,52.1644,-1.8567,5350
Measham,52.7061,-1.5080,5209
Newmains,55.7832,-3.8771,5329
Redbourn,51.8002,-0.3965,5344
Roundway,51.3680,-1.9810,5290
Edwinstowe,53.1600,-1.0700,5188
Holytown,55.8229,-3.9701,5180
Ruskington,53.0444,-0.3875,5169
Baystonhill,52.6727,-2.7654,5079
Gresford,53.0870,-2.9660,5010
Kings Langley,51.7156,-0.4569,5072
Whiston,53.4000,-1.3200,5042
Middleton-on-Sea,50.7949,-0.6197,5077
