City,Latitude,Longitude,Population
Dubai,25.2697,55.3094,2502715
Sharjah,25.3575,55.3919,1400000
Abu Dhabi,24.4781,54.3686,1000000
Al `Ayn,24.2075,55.7447,766936
`Ajman,25.3994,55.4797,238119
Ra's al Khaymah,25.7915,55.9428,160849
Al Fujayrah,25.1308,56.3347,93673
Umm al Qaywayn,25.5653,55.5533,44411
Madinat Zayid,23.6522,53.6536,29095
